%time,field.header.seq,field.header.stamp,field.header.frame_id,field.wrench.force.x,field.wrench.force.y,field.wrench.force.z,field.wrench.torque.x,field.wrench.torque.y,field.wrench.torque.z
1610117286195018412,71888,1610117286194489971,base_link,-0.520279856648,0.421153929129,2.34176355882,-0.0144504521778,-0.0338202549905,-0.0704263133539
1610117286195108592,71889,1610117286194788516,base_link,-0.519267070435,0.407734483056,2.33790644985,-0.0144534032782,-0.033824744043,-0.0708262482822
1610117286214157013,71890,1610117286214028187,base_link,-0.507489102358,0.40790499139,2.34979972883,-0.0142805593443,-0.0337228077696,-0.0710305189022
1610117286234323265,71891,1610117286234174761,base_link,-0.492035994498,0.40554210104,2.35171326223,-0.0142122280017,-0.033448387555,-0.0710340934259
1610117286254322640,71892,1610117286254144501,base_link,-0.476557432012,0.403225768979,2.3576476345,-0.0143181935486,-0.0332742308778,-0.0708338030843
1610117286274261506,71893,1610117286274107356,base_link,-0.469666533492,0.41907576068,2.3634195794,-0.0147626320524,-0.0333066948366,-0.0706301574288
1610117286274329706,71894,1610117286274201301,base_link,-0.46007541457,0.445856367306,2.36504859826,-0.0151387482319,-0.0330647190453,-0.0704300928217
1610117286294876694,71895,1610117286294549745,base_link,-0.472506456681,0.442976142498,2.3551637849,-0.0151403467901,-0.033068805376,-0.0706292850344
1610117286314244502,71896,1610117286314088939,base_link,-0.481076448193,0.449496177709,2.35713138236,-0.0152760358071,-0.0336203192507,-0.0706216073951
1610117286334247659,71897,1610117286334108224,base_link,-0.480101685938,0.459375825886,2.35101222895,-0.0156188794783,-0.0338264450102,-0.0706167603965
1610117286334362918,71898,1610117286334215678,base_link,-0.480497413323,0.452082696415,2.34309658322,-0.0151744399852,-0.0337939755991,-0.0708204030239
1610117286354344165,71899,1610117286354169896,base_link,-0.49557250716,0.426666169721,2.33949410941,-0.0146962808932,-0.0342080194558,-0.0712202968544
1610117286374318802,71900,1610117286374136678,base_link,-0.499690915811,0.445205041955,2.34131593552,-0.0149678586414,-0.0341352160259,-0.0708190653772
1610117286394164885,71901,1610117286394040096,base_link,-0.493575822219,0.458169128597,2.33313278865,-0.0151723999579,-0.0337883268782,-0.0706222779373
1610117286414758562,71902,1610117286414304245,base_link,-0.491921491203,0.459109152134,2.32510938356,-0.0149311218492,-0.0334085878997,-0.0704283070857
1610117286434290263,71903,1610117286434124929,base_link,-0.509365062947,0.453343682018,2.33331775494,-0.0146212432702,-0.0339199765133,-0.0702245031598
1610117286434390040,71904,1610117286434271077,base_link,-0.513083388198,0.455830720335,2.34131795673,-0.0144820618439,-0.0345350166096,-0.0700185787143
1610117286454891273,71905,1610117286454684114,base_link,-0.506522954818,0.441134784266,2.3454349226,-0.0143790117592,-0.0347064036819,-0.070017415363
1610117286474197338,71906,1610117286474051865,base_link,-0.504067573259,0.45668178307,2.35722725901,-0.0148951754758,-0.0350212051596,-0.0702084159276
1610117286494237613,71907,1610117286494085700,base_link,-0.500907898145,0.475013525841,2.37299214309,-0.0156837599118,-0.0352691014538,-0.0708010192601
1610117286514279154,71908,1610117286514133727,base_link,-0.499236178434,0.487658795334,2.36883739558,-0.0161311270131,-0.0353061197035,-0.0709973196282
1610117286514407224,71909,1610117286514265648,base_link,-0.502052749131,0.488229307037,2.35885073336,-0.0165101168611,-0.035068643108,-0.0711972569186
1610117286534218272,71910,1610117286534065478,base_link,-0.502036309161,0.499921281952,2.35676950419,-0.0166185760271,-0.0348944236083,-0.0716005374173
1610117286554195636,71911,1610117286554072459,base_link,-0.513427183771,0.483657824149,2.3450340061,-0.01600284622,-0.0347589396958,-0.0718066349889
1610117286574345556,71912,1610117286574189116,base_link,-0.532722677815,0.464935252313,2.32734765321,-0.0150773863418,-0.0351372641633,-0.0716074226849
1610117286594228127,71913,1610117286594074677,base_link,-0.536819048804,0.460152433103,2.32943172322,-0.0149758136785,-0.0353109011212,-0.0718062710669
1610117286594367947,71914,1610117286594208583,base_link,-0.536071618123,0.474672026641,2.33926410665,-0.0150441581555,-0.035585317935,-0.0718026865855
1610117286614500739,71915,1610117286614303499,base_link,-0.53191060348,0.479567356961,2.34918763896,-0.0150386185759,-0.0355800019706,-0.0714035769896
1610117286634258167,71916,1610117286634140968,base_link,-0.513338219468,0.472104676529,2.35513526978,-0.0149018864364,-0.0350310920612,-0.0714107337018
1610117286654252790,71917,1610117286654110449,base_link,-0.491325238137,0.47838538845,2.36286460107,-0.0148666753659,-0.0343127751699,-0.0712178158185
1610117286674368951,71918,1610117286674177542,base_link,-0.467333652106,0.492824092657,2.36455472505,-0.0151083163419,-0.0335204123194,-0.0710242608261
1610117286674396288,71919,1610117286674289972,base_link,-0.451955978915,0.490346099854,2.3564684969,-0.0151430548302,-0.0330745864935,-0.071029020285
1610117286694247834,71920,1610117286694117315,base_link,-0.462605631037,0.476915714398,2.35269766438,-0.0149384086333,-0.0334196257165,-0.0712266511297
1610117286714347985,71921,1610117286714167695,base_link,-0.488243619764,0.473238068531,2.36094165935,-0.014970868169,-0.0341347758748,-0.0710195379799
1610117286734390941,71922,1610117286734139442,base_link,-0.496377301246,0.463761990387,2.37310881692,-0.0152106782459,-0.0345122708194,-0.0710135379186
1610117286734481085,71923,1610117286734282443,base_link,-0.499037048674,0.452898480074,2.3832511877,-0.0151090930062,-0.0346859241542,-0.0712123895546
1610117286754212118,71924,1610117286754067926,base_link,-0.498644658288,0.448508694713,2.38929128413,-0.0151413419354,-0.0342394749552,-0.0712183251503
1610117286774496369,71925,1610117286774317072,base_link,-0.493183759725,0.447096286818,2.3852667878,-0.0153474461928,-0.0338966754523,-0.0712206523916
1610117286794205302,71926,1610117286794066344,base_link,-0.484702015135,0.44044808683,2.37528069482,-0.0153819368639,-0.0334505973883,-0.0710238354132
1610117286814214211,71927,1610117286814067087,base_link,-0.486447101847,0.439371739589,2.37130537447,-0.0153804636102,-0.0334483523381,-0.070823867938
1610117286834342344,71928,1610117286834152392,base_link,-0.485096712987,0.444836395511,2.36923384732,-0.0154443715367,-0.0337160375614,-0.0702203334839
1610117286834470547,71929,1610117286834315231,base_link,-0.480911464943,0.44975287291,2.37914875472,-0.015336884954,-0.0338807069042,-0.0696192183402
1610117286854279471,71930,1610117286854135205,base_link,-0.470968268759,0.472085312492,2.3828061054,-0.0154366111208,-0.0337090724306,-0.0694203324753
1610117286874319123,71931,1610117286874175465,base_link,-0.470558077688,0.479400778774,2.39272176807,-0.0153003545145,-0.0343285773269,-0.0696143706245
1610117286894407332,71932,1610117286894152125,base_link,-0.487726992996,0.480727430699,2.38885207412,-0.0154403631712,-0.0348776609129,-0.0698072662828
1610117286894559450,71933,1610117286894331101,base_link,-0.496297597763,0.463892486986,2.38710418929,-0.0152689809544,-0.0347746245901,-0.0698096857461
1610117286914237946,71934,1610117286914086672,base_link,-0.50934240002,0.446688108865,2.38339299934,-0.0149974093762,-0.034847413788,-0.0702108764428
1610117286934306888,71935,1610117286934173187,base_link,-0.534030652492,0.429492672811,2.37975219242,-0.0150351287452,-0.0355748286132,-0.0708028118948
1610117286954249295,71936,1610117286954102291,base_link,-0.528016355357,0.442306219272,2.35956239572,-0.0156187314692,-0.0349922648961,-0.0708050698978
1610117286974981038,71937,1610117286974739866,base_link,-0.507815921128,0.447422302205,2.35535630603,-0.0155836473847,-0.0342697729938,-0.0706134400648
1610117286995411448,71938,1610117286994759680,base_link,-0.505064648656,0.446747873193,2.35534401884,-0.0154123776682,-0.0341677300441,-0.0708168375678
1610117286995416667,71939,1610117286994871453,base_link,-0.492716922859,0.461186289679,2.35709187353,-0.0156839625644,-0.0340949331751,-0.0704156572785
1610117287014232436,71940,1610117287014094137,base_link,-0.475303330825,0.466918226986,2.3468990849,-0.0155428970307,-0.0335393496856,-0.0698228628584
1610117287034289989,71941,1610117287034140573,base_link,-0.474839965141,0.462659668325,2.36696070156,-0.0151681451475,-0.0337802313344,-0.0698210258316
1610117287054460619,71942,1610117287054265174,base_link,-0.471352292053,0.464810860613,2.37491150169,-0.0151725738128,-0.0337869721734,-0.0704209758158
1610117287074335355,71943,1610117287074176491,base_link,-0.45391836849,0.470572840245,2.36672173939,-0.0152102367204,-0.0333447315769,-0.07082610884
1610117287074425717,71944,1610117287074299195,base_link,-0.444019421004,0.457800728791,2.35879134147,-0.0149386705244,-0.0334175230888,-0.0712273027601
1610117287094385143,71945,1610117287094186857,base_link,-0.430281839766,0.454406447852,2.3607282977,-0.0149416219766,-0.0334220126765,-0.0716272853679
1610117287114206890,71946,1610117287114065654,base_link,-0.433754758612,0.452277833177,2.35477732886,-0.0148732089382,-0.0331475434491,-0.0716308709524
1610117287134179743,71947,1610117287134054032,base_link,-0.438933157372,0.449140944955,2.35284002514,-0.0146969278173,-0.0330417972976,-0.0712330714362
1610117287155541202,71948,1610117287154723265,base_link,-0.455356579349,0.453310113785,2.35891470915,-0.0147637594557,-0.0333139931694,-0.0710294684989
1610117287155563521,71949,1610117287154941757,base_link,-0.46872897205,0.463952995806,2.3608938878,-0.0148682940421,-0.0331448601738,-0.0712306500789
1610117287174264459,71950,1610117287174097197,base_link,-0.478591646794,0.465078591666,2.36695324337,-0.0147026990931,-0.0330439187806,-0.0714320732498
1610117287194154673,71951,1610117287194037309,base_link,-0.474524165324,0.469815064828,2.36086937514,-0.0146695415293,-0.0334920471966,-0.0716273243965
1610117287214310786,71952,1610117287214093105,base_link,-0.471473503705,0.476303576736,2.35879959675,-0.0149068936935,-0.0338677285768,-0.0718238262357
1610117287234243691,71953,1610117287234098553,base_link,-0.457482103885,0.479970880365,2.34861836915,-0.0153509921522,-0.0339024929038,-0.0714184488169
1610117287234336366,71954,1610117287234189783,base_link,-0.447925097721,0.483341303748,2.34250959225,-0.0158637554133,-0.0342093877391,-0.0712111689747
1610117287254910817,71955,1610117287254498956,base_link,-0.454507499542,0.47464776419,2.3326549404,-0.0159292270129,-0.0344793549839,-0.070807594115
1610117287274205940,71956,1610117287274044786,base_link,-0.452383068192,0.459644475369,2.33884189449,-0.0159280101168,-0.0344708916484,-0.0704083892835
1610117287294399467,71957,1610117287294169301,base_link,-0.46952407049,0.449340289648,2.33908402349,-0.0157204283313,-0.0348114492399,-0.070206054201
1610117287294412070,71958,1610117287294277911,base_link,-0.481124339179,0.449421284956,2.34716952485,-0.0154474601986,-0.0348820726196,-0.070407282626
1610117287314293001,71959,1610117287314139447,base_link,-0.492799643006,0.449376271148,2.34718924025,-0.0151693856839,-0.0349595698753,-0.0706079224988
1610117287334161481,71960,1610117287334041347,base_link,-0.474184214878,0.441983214934,2.35913753482,-0.0148627419911,-0.0343098781603,-0.0708175453414
1610117287354683062,71961,1610117287354434474,base_link,-0.47213581892,0.450213877761,2.35705476935,-0.0147290350428,-0.0337583430562,-0.0708246861179
1610117287374400482,71962,1610117287374140936,base_link,-0.455662503266,0.457796597007,2.35884854581,-0.0149669260809,-0.0329652171823,-0.0704318582522
1610117287394325589,71963,1610117287394152821,base_link,-0.472128354053,0.461897739486,2.35694124709,-0.0151052718879,-0.0335164144001,-0.0710272993818
1610117287394421034,71964,1610117287394300330,base_link,-0.488206861889,0.4499256732,2.36119317507,-0.0148308271941,-0.0335847993669,-0.0710285430408
1610117287414360817,71965,1610117287414201904,base_link,-0.510209160264,0.455324181493,2.35529291603,-0.0150361255498,-0.0344069393656,-0.070816803477
1610117287434330432,71966,1610117287434172957,base_link,-0.52116123748,0.44642197554,2.35747330419,-0.0151088724549,-0.0346880819294,-0.0714131759996
1610117287454318458,71967,1610117287454175111,base_link,-0.528046165772,0.430600103331,2.35573138072,-0.0148044946561,-0.0352054455091,-0.0718089927137
1610117287474383938,71968,1610117287474151457,base_link,-0.515356007766,0.428894691101,2.35565677191,-0.01500617693,-0.0348559327211,-0.0712113590576
1610117287474465991,71969,1610117287474306531,base_link,-0.498188331843,0.439242505044,2.35941458292,-0.0153109215346,-0.0343350123698,-0.0706148837568
1610117287494326492,71970,1610117287494182311,base_link,-0.488455930971,0.45454804611,2.37715121235,-0.0155122243984,-0.0339889144015,-0.0702177679987
1610117287514671506,71971,1610117287514528960,base_link,-0.487857715341,0.468840425968,2.36698570312,-0.016056777009,-0.0338455032599,-0.0696153149139
1610117287534317966,71972,1610117287534181877,base_link,-0.484443352309,0.482543625722,2.36281566209,-0.0163651532357,-0.0333268408353,-0.0694196779019
1610117287554697074,71973,1610117287554403688,base_link,-0.484011629254,0.466536620516,2.37299244797,-0.0156448068781,-0.0333605324738,-0.0694245908657
1610117287554805830,71974,1610117287554521583,base_link,-0.485685349345,0.453891361734,2.37714642265,-0.0151656586782,-0.033773918402,-0.0696234895068
1610117287574355575,71975,1610117287574159332,base_link,-0.485414716554,0.449329238215,2.37117791914,-0.0147910320439,-0.0340207399824,-0.0698208424967
1610117287594251291,71976,1610117287594112455,base_link,-0.488053648178,0.438503183256,2.38533578872,-0.0144094252883,-0.0342556148911,-0.0696226624769
1610117287614269692,71977,1610117287614136572,base_link,-0.50336077427,0.429408864956,2.40155178115,-0.0141002381542,-0.0347698096061,-0.0696191772728
1610117287634249331,71978,1610117287634094779,base_link,-0.501589930704,0.442193245902,2.40740019046,-0.0143757626326,-0.0347013229588,-0.0698193296812
1610117287634422237,71979,1610117287634242949,base_link,-0.500918051444,0.456597684956,2.40723432089,-0.0148914737033,-0.0350126910934,-0.0700120689784
1610117287654273951,71980,1610117287654109882,base_link,-0.502692434674,0.455476946956,2.39925915915,-0.0148231447586,-0.0347382528185,-0.070015636747
1610117287674635685,71981,1610117287674455019,base_link,-0.497305674155,0.465644401806,2.38911941718,-0.0150345734944,-0.0344003637899,-0.0704165543022
1610117287694246760,71982,1610117287694088856,base_link,-0.476750343309,0.489670232459,2.38869893896,-0.0157212452488,-0.0336463990228,-0.0704199197418
1610117287694582843,71983,1610117287694404612,base_link,-0.489190459167,0.463414728792,2.37308303677,-0.0156167069185,-0.0338155697464,-0.070218795541
1610117287714237688,71984,1610117287714116920,base_link,-0.491717435369,0.459427400282,2.35509975832,-0.0157497604268,-0.033200044085,-0.0700247463339
1610117287734223281,71985,1610117287734070756,base_link,-0.504784763136,0.465544997551,2.35112660414,-0.0159895446844,-0.0335775681375,-0.0700187510823
1610117287754225820,71986,1610117287754065361,base_link,-0.519492607659,0.470746289753,2.35717650574,-0.0159548115418,-0.034023394482,-0.0700140012017
1610117287774272572,71987,1610117287774095966,base_link,-0.523990961186,0.458668098717,2.35135987061,-0.015576748913,-0.0342614004778,-0.0700147612818
1610117287794347524,71988,1610117287794128598,base_link,-0.519607112191,0.505615243214,2.34680169424,-0.0162999500896,-0.0342321995824,-0.0704098385106
1610117287794572478,71989,1610117287794286355,base_link,-0.525772991036,0.527605004524,2.35060110334,-0.0165425818255,-0.0346141569092,-0.0708038358979
1610117287814190702,71990,1610117287814056343,base_link,-0.51066860037,0.529681069442,2.34846520048,-0.0169237857198,-0.0343744707418,-0.0708027163747
1610117287834197620,71991,1610117287834042201,base_link,-0.507954208381,0.528951569778,2.34445297484,-0.0169208450988,-0.0343699840253,-0.070402781343
1610117287854302005,71992,1610117287854092305,base_link,-0.510419633721,0.513409752488,2.33665246125,-0.0164427043446,-0.0347857096688,-0.0708015016669
1610117287874266914,71993,1610117287874115708,base_link,-0.502813678698,0.497021880766,2.34278073244,-0.0158938225025,-0.0349224397588,-0.0708040103739
1610117287874344103,71994,1610117287874231602,base_link,-0.485331000697,0.491183670062,2.34071723509,-0.0154797851462,-0.0344374495179,-0.0704124442325
1610117287894234270,71995,1610117287894101345,base_link,-0.494202357527,0.490557474219,2.34679007731,-0.0158587672268,-0.034199909486,-0.0706123208783
1610117287914214569,71996,1610117287914088377,base_link,-0.494889757714,0.487823392348,2.34884922493,-0.0156876605682,-0.0341017121109,-0.0714178091144
1610117287934338482,71997,1610117287934189410,base_link,-0.481499349488,0.488885366453,2.3507394698,-0.0159621926877,-0.0340333992791,-0.0714165576925
1610117287954377822,71998,1610117287954094858,base_link,-0.496206655417,0.470722132107,2.35304051585,-0.0157243817626,-0.0336558533425,-0.0712206397254
1610117287954385442,71999,1610117287954253606,base_link,-0.517730474651,0.460183506484,2.36331758613,-0.0156911141107,-0.0341039153558,-0.0714158779888
1610117287974264896,72000,1610117287974105925,base_link,-0.514059539969,0.457629492578,2.34931795118,-0.0154151946813,-0.0341700481565,-0.071217164468
1610117287994262319,72001,1610117287994108375,base_link,-0.504201408528,0.456474767966,2.33725755117,-0.0157882669531,-0.0339235568102,-0.0706171351339
1610117288014358139,72002,1610117288014187175,base_link,-0.516164990072,0.472673513219,2.34516513568,-0.0163342103469,-0.0337823678618,-0.0702146439748
1610117288034265087,72003,1610117288034124177,base_link,-0.48810905493,0.468470190979,2.33500485593,-0.0161628280927,-0.0336793314371,-0.070217056447
1610117288034409649,72004,1610117288034271487,base_link,-0.456978720033,0.459101233653,2.32287949524,-0.0157531248179,-0.0332010246763,-0.0704254685528
1610117288054303513,72005,1610117288054133213,base_link,-0.441506441277,0.456756622215,2.32677237004,-0.0158601120501,-0.0330366680645,-0.0708255376347
1610117288074272140,72006,1610117288074123440,base_link,-0.439764017773,0.457831344295,2.3307477626,-0.0159299013317,-0.0333133520381,-0.0710219239304
1610117288094300965,72007,1610117288094131166,base_link,-0.455572348371,0.441279552067,2.32503299308,-0.0152128584701,-0.0333522868254,-0.0712251389036
1610117288094381469,72008,1610117288094234638,base_link,-0.485730062797,0.460527954085,2.33103875981,-0.0158316158354,-0.0334923060036,-0.0714190556105
1610117288114274061,72009,1610117288114074138,base_link,-0.519591881142,0.470603761272,2.34517604765,-0.0164127060558,-0.0340736244506,-0.0712081757562
1610117288134302471,72010,1610117288134106221,base_link,-0.53667711047,0.46037731197,2.34943804472,-0.0159317182375,-0.0344790325052,-0.0710082016378
1610117288154243404,72011,1610117288154076854,base_link,-0.539081565494,0.44492341452,2.34963632959,-0.0154816767663,-0.0344425268376,-0.0710137485816
1610117288174338831,72012,1610117288174159927,base_link,-0.522640873385,0.44077772768,2.34556151801,-0.015413345412,-0.0341681065791,-0.0710173195073
1610117288194283569,72013,1610117288194126811,base_link,-0.523686540242,0.442461968147,2.34352719525,-0.0156526266825,-0.0345468061454,-0.0708097732586
1610117288194361212,72014,1610117288194218376,base_link,-0.524745944493,0.444130077631,2.33951578497,-0.0158225415998,-0.0346475940995,-0.0706073896799
1610117288214268400,72015,1610117288214125620,base_link,-0.524687197683,0.444219937767,2.34751505693,-0.0158196044694,-0.0346431014141,-0.0702074546895
1610117288234115225,72016,1610117288234001518,base_link,-0.52399038263,0.446982919739,2.34749449395,-0.0158194117666,-0.0346371480471,-0.069807183466
1610117288254236490,72017,1610117288254073526,base_link,-0.521165853502,0.469778613356,2.3612191489,-0.0164337666678,-0.0347703814809,-0.069401154265
1610117288274741225,72018,1610117288274237894,base_link,-0.505365646869,0.451292025784,2.36531766873,-0.0157472740575,-0.0343585146515,-0.0694106438969
1610117288274892011,72019,1610117288274391561,base_link,-0.487534978986,0.440996975345,2.36330142392,-0.0151661932362,-0.0337771802377,-0.0696214603999
1610117288294369909,72020,1610117288294175346,base_link,-0.477000369252,0.465931694901,2.35294287135,-0.0155466472313,-0.0335419158847,-0.0700213007822
1610117288314308964,72021,1610117288314146785,base_link,-0.467412762003,0.492709325002,2.35456488717,-0.0159244679686,-0.0333050083939,-0.0702213609509
1610117288334372479,72022,1610117288334172334,base_link,-0.470525492733,0.474449453591,2.34480784621,-0.0153787980568,-0.0334410905949,-0.0704245102014
1610117288354404234,72023,1610117288354124570,base_link,-0.454332927876,0.474916889087,2.35468416176,-0.0153104568437,-0.0331666728779,-0.0704280877563
1610117288354487082,72024,1610117288354283267,base_link,-0.443374145019,0.460475020975,2.3507648631,-0.0151405443696,-0.0330658850604,-0.0706305205725
1610117288375207805,72025,1610117288374627766,base_link,-0.434083035931,0.445078774819,2.3548567051,-0.0148696160986,-0.0331413563121,-0.0710305281184
1610117288394280803,72026,1610117288394114319,base_link,-0.436788463315,0.434145108983,2.3589997833,-0.0146664563978,-0.0334886448521,-0.0714281807809
1610117288414228957,72027,1610117288414099108,base_link,-0.432787653599,0.450463847611,2.34677817178,-0.0151074784261,-0.0335230094909,-0.0714262343514
1610117288434808415,72028,1610117288434189421,base_link,-0.450689133823,0.472330534476,2.34066389576,-0.016137313921,-0.0341435316965,-0.0716117726595
1610117288434833916,72029,1610117288434299871,base_link,-0.471220630172,0.48337833135,2.34869140041,-0.0168214521691,-0.0345534923519,-0.0714021057555
1610117288454339392,72030,1610117288454146346,base_link,-0.488342594141,0.484785458738,2.35282653701,-0.016815999433,-0.0345433026135,-0.0708037064652
1610117288474232452,72031,1610117288474093044,base_link,-0.490723051409,0.481033667217,2.35488610069,-0.0167447402094,-0.0342644162277,-0.0704072876657
1610117288494385668,72032,1610117288494158253,base_link,-0.499920969522,0.461531829597,2.35915908337,-0.0163060470604,-0.0342368500681,-0.0708086161141
1610117288514216748,72033,1610117288514048490,base_link,-0.491394647029,0.466603502459,2.35101978226,-0.0158931999935,-0.0337554093314,-0.0706169470611
1610117288514369802,72034,1610117288514223414,base_link,-0.480440075215,0.475507361883,2.34883908254,-0.0156534839041,-0.0333779431299,-0.0706229478203
1610117288534222339,72035,1610117288534055708,base_link,-0.495191706005,0.480641843705,2.34888974527,-0.0157930915844,-0.033931291977,-0.07101576125
1610117288554255376,72036,1610117288554137225,base_link,-0.498978920446,0.483032631261,2.34890148029,-0.0159328308474,-0.0344823988403,-0.0712077853232
1610117288574243387,72037,1610117288574092902,base_link,-0.49316547476,0.500528069333,2.34866200931,-0.0162742101221,-0.0346862603734,-0.0710029267197
1610117288595603239,72038,1610117288594821885,base_link,-0.508537073906,0.456307132326,2.35327260685,-0.0154482711103,-0.0348906580044,-0.0710077217515
1610117288595610066,72039,1610117288595286658,base_link,-0.515383533542,0.440524325654,2.35350000975,-0.0151376198864,-0.0354026129303,-0.0708042587127
1610117288614291772,72040,1610117288614144665,base_link,-0.513410120424,0.436961015203,2.34152450423,-0.0149677066384,-0.0353018220352,-0.0710066422282
1610117288634272319,72041,1610117288634098789,base_link,-0.512443199859,0.43513619156,2.32952969926,-0.0150048028677,-0.0348580059834,-0.0712115650342
1610117288654359293,72042,1610117288654185006,base_link,-0.517471181516,0.420540838347,2.34373159508,-0.0148363507608,-0.0347594684259,-0.0716139620935
1610117288654612359,72043,1610117288654369603,base_link,-0.503824979268,0.452039514726,2.33727745661,-0.0152837339077,-0.034796403148,-0.0718103144959
1610117288674306192,72044,1610117288674156245,base_link,-0.494975804427,0.464304738853,2.32907414339,-0.0153213002357,-0.0343550145422,-0.0722150465788
1610117288694815392,72045,1610117288694657275,base_link,-0.494242357079,0.467135449146,2.33705109131,-0.0154175536449,-0.0341761250139,-0.0718185116867
1610117288714273208,72046,1610117288714155599,base_link,-0.492512074279,0.468189165682,2.33902670245,-0.0152447048203,-0.0340708609188,-0.0716209003706
1610117288734289068,72047,1610117288734108862,base_link,-0.488199448806,0.468340086262,2.32302024415,-0.0149707962582,-0.0341344330405,-0.0712205146748
1610117288754464843,72048,1610117288754192391,base_link,-0.47989153665,0.466400002027,2.33298156357,-0.0151085193432,-0.0335171525962,-0.0712263964753
1610117288754468433,72049,1610117288754315269,base_link,-0.47091621078,0.467181779748,2.34090731787,-0.0156560227033,-0.0333782291903,-0.0710238583475
1610117288774391042,72050,1610117288774188707,base_link,-0.460476715118,0.450227416847,2.35699221268,-0.0154170878433,-0.0330054974949,-0.071229551588
1610117288794305780,72051,1610117288794141276,base_link,-0.463399151701,0.43227149598,2.37721679907,-0.0150757066756,-0.0328016254123,-0.0714343965381
1610117288814192548,72052,1610117288814077558,base_link,-0.457890976495,0.442610399339,2.38106089759,-0.0152818191287,-0.0324588308352,-0.071436723496
1610117288834178729,72053,1610117288834051577,base_link,-0.46040714055,0.462001058353,2.36683419456,-0.0155203655771,-0.0328371133127,-0.0712298282097
1610117288834277584,72054,1610117288834192321,base_link,-0.466649689752,0.472196010611,2.35876460292,-0.0153127779185,-0.0331776813939,-0.0710275168114
1610117288854290527,72055,1610117288854174408,base_link,-0.474645186044,0.492976414925,2.34658835318,-0.0156209090955,-0.0338296179571,-0.0710179233729
1610117288874812243,72056,1610117288874535776,base_link,-0.471950109859,0.51558326604,2.34432335605,-0.0162002797163,-0.0344098172319,-0.0708079269621
1610117288894316635,72057,1610117288894166202,base_link,-0.488364575816,0.508090000471,2.35052826122,-0.0161670942579,-0.0348579379407,-0.0710031910581
1610117288914838162,72058,1610117288914417549,base_link,-0.506903563571,0.480574620471,2.34696712501,-0.0159623159505,-0.0352029420931,-0.0709993370466
1610117288914988257,72059,1610117288914589464,base_link,-0.519543184717,0.458999912522,2.35130336314,-0.0157924048359,-0.0351021548702,-0.071201724182
1610117288934362515,72060,1610117288934174282,base_link,-0.505488868422,0.451100891989,2.3492887516,-0.015725562279,-0.0348299639209,-0.071405283269
1610117288954238057,72061,1610117288954103165,base_link,-0.503486739088,0.447583501658,2.34131291618,-0.0157270325122,-0.0348322155804,-0.0716052983802
1610117288974451481,72062,1610117288974223130,base_link,-0.487384326209,0.459587183766,2.3370866851,-0.016103395644,-0.0345839600022,-0.071206224044
1610117288994455720,72063,1610117288994131647,base_link,-0.492393514612,0.456698037683,2.35515762961,-0.0156589547945,-0.0345515024626,-0.0714099124313
1610117288994465428,72064,1610117288994220843,base_link,-0.505784051084,0.455636720952,2.35326792411,-0.0154557921995,-0.0348987854435,-0.0718075684703
1610117289015008503,72065,1610117289014676190,base_link,-0.534252648149,0.429158188798,2.35174059407,-0.0149052363578,-0.0350383110164,-0.0716082643859
1610117289034185380,72066,1610117289034057262,base_link,-0.561331867196,0.396529794573,2.35030761376,-0.0140135041977,-0.0349689169942,-0.0716156074321
1610117289054227961,72067,1610117289054048300,base_link,-0.580253543794,0.396781557271,2.34446891624,-0.0139810596046,-0.0354163652028,-0.072011823408
1610117289074211516,72068,1610117289074072880,base_link,-0.555316151612,0.40935872972,2.3321425992,-0.0144617156097,-0.0350052617681,-0.072012901085
1610117289074390682,72069,1610117289074232665,base_link,-0.519286447202,0.407696824543,2.33389595124,-0.0144251171994,-0.0342804497445,-0.0716212619894
1610117289094235916,72070,1610117289094091267,base_link,-0.505939926554,0.432045034952,2.3295386363,-0.0149087009167,-0.0338689403883,-0.0718229901974
1610117289114258901,72071,1610117289114105887,base_link,-0.469284000115,0.456390013115,2.32499219301,-0.0154914704044,-0.0332858979935,-0.0718258000629
1610117289134414866,72072,1610117289134150431,base_link,-0.446975286419,0.458145989826,2.32680852424,-0.015423141493,-0.0330114598408,-0.0718293778552
1610117289154382821,72073,1610117289154108769,base_link,-0.453106881628,0.45681791284,2.33084851661,-0.0152497419704,-0.0329095840602,-0.0718322991848
1610117289154405844,72074,1610117289154199518,base_link,-0.469948439932,0.465335204128,2.32687594915,-0.0153865003799,-0.0334584874204,-0.071825142108
1610117289174202807,72075,1610117289174076440,base_link,-0.461949189855,0.456236869654,2.34092056054,-0.0151760045853,-0.0337945617974,-0.0712228577489
1610117289194180692,72076,1610117289194044273,base_link,-0.486590728249,0.450822450961,2.35118009499,-0.0150383679741,-0.0344095181826,-0.0710160194271
1610117289214283957,72077,1610117289214108474,base_link,-0.507502081443,0.454599427515,2.35329195406,-0.0150051128069,-0.0348575877734,-0.0712112424266
1610117289234298805,72078,1610117289234135097,base_link,-0.516407225867,0.442239689332,2.3534734581,-0.0147983734173,-0.0352028032906,-0.0712083604573
1610117289234352385,72079,1610117289234214149,base_link,-0.51572499215,0.444983880703,2.35343758722,-0.0149028931109,-0.0350336654437,-0.0714095456966
1610117289254244560,72080,1610117289254101132,base_link,-0.530563529943,0.461664250821,2.34335829137,-0.015521578849,-0.0351736033064,-0.0716034299645
1610117289274236371,72081,1610117289274088424,base_link,-0.507294351623,0.473278088627,2.33705604962,-0.0158307537733,-0.0346594014224,-0.071606940529
1610117289294204921,72082,1610117289294083767,base_link,-0.49004426107,0.448712530075,2.34719816884,-0.0151782457193,-0.0337982697681,-0.0712205356424
1610117289314193463,72083,1610117289314069402,base_link,-0.495163798515,0.469010937551,2.35300757611,-0.0156924852146,-0.0341074092483,-0.0712132705292
1610117289314314268,72084,1610117289314211778,base_link,-0.511905339351,0.477683782814,2.36303390419,-0.0160367275764,-0.0343157227917,-0.0714083952926
1610117289334612920,72085,1610117289334319196,base_link,-0.499868178025,0.461630177347,2.37115834207,-0.0156225407637,-0.0338324976466,-0.0714181817321
1610117289354270971,72086,1610117289354085601,base_link,-0.516629858032,0.446910676507,2.37544731848,-0.0155194660728,-0.0340038977438,-0.0714170184237
1610117289374200157,72087,1610117289374085280,base_link,-0.532417953752,0.45373924473,2.37147882078,-0.0159312255906,-0.0344854208623,-0.0716098234281
1610117289394507274,72088,1610117289394138734,base_link,-0.512191515693,0.435534639466,2.36753389848,-0.015313930573,-0.0343476674193,-0.0716158936241
1610117289394518847,72089,1610117289394291101,base_link,-0.480973211544,0.414617458201,2.3655389612,-0.0144236657189,-0.0342805015897,-0.0718231787867
1610117289414229708,72090,1610117289414081916,base_link,-0.489859116371,0.425650939686,2.37148105243,-0.0147678972363,-0.0344888144769,-0.0720183722476
1610117289434215028,72091,1610117289434058579,base_link,-0.47093842873,0.43706340115,2.3751943053,-0.01480268595,-0.0340432645981,-0.0720235892513
1610117289454524286,72092,1610117289454290629,base_link,-0.47093842873,0.43706340115,2.3751943053,-0.0150785897203,-0.0339771177012,-0.0722223198222
1610117289474255525,72093,1610117289474058851,base_link,-0.479782299631,0.448187804295,2.39117007127,-0.0152871875502,-0.0336315450968,-0.0720228141052
1610117289474324983,72094,1610117289474181685,base_link,-0.487938588686,0.462034617615,2.40307613875,-0.0154873999334,-0.0332797814598,-0.0712252197559
1610117289494240165,72095,1610117289494122960,base_link,-0.476324123946,0.450293884845,2.39512140202,-0.0148686388091,-0.0331397801258,-0.0710313021595
1610117289514252979,72096,1610117289514090881,base_link,-0.495172580459,0.438964242523,2.39538360885,-0.0149046421772,-0.0338629272245,-0.0712225751868
1610117289534286577,72097,1610117289534113044,base_link,-0.487606810879,0.434191694493,2.39738157418,-0.0148318772667,-0.0335817749865,-0.0706262094215
1610117289554262013,72098,1610117289554083439,base_link,-0.489378879035,0.43307210139,2.38940650238,-0.015106405208,-0.0335134455012,-0.0706249506147
1610117289554311898,72099,1610117289554169670,base_link,-0.493197741601,0.435403699596,2.38340783337,-0.0153793758682,-0.0334428224671,-0.0704237254971
1610117289574192784,72100,1610117289574041425,base_link,-0.486030819638,0.446682093891,2.37919901321,-0.015443282313,-0.033716892956,-0.0702208404144
1610117289594209617,72101,1610117289594080608,base_link,-0.473741909764,0.461030812258,2.37294718546,-0.0151688360007,-0.0337852714206,-0.0702220844504
1610117289614297060,72102,1610117289614124279,base_link,-0.454949506506,0.472290031049,2.36671394921,-0.0152067582529,-0.0333394343268,-0.0704265414889
1610117289634575166,72103,1610117289634354029,base_link,-0.450578539724,0.472502413709,2.35467835511,-0.0152052833629,-0.0333371920811,-0.0702265739943
1610117289634691450,72104,1610117289634492543,base_link,-0.454417140038,0.463124698086,2.34481107206,-0.014999166847,-0.0336799842388,-0.0702242504914
1610117289654268423,72105,1610117289654125989,base_link,-0.461238563795,0.447361380762,2.34503293428,-0.0149295305795,-0.0334043552661,-0.0702290059672
1610117289674329017,72106,1610117289674199386,base_link,-0.467082293061,0.429814933892,2.34126181881,-0.0146859109672,-0.0330249515109,-0.0700357045099
1610117289694331118,72107,1610117289694169152,base_link,-0.474375921952,0.418333142667,2.32744250614,-0.014375278518,-0.0335369194752,-0.0698322456139
1610117289714376379,72108,1610117289714188533,base_link,-0.471032848626,0.420267505673,2.31738767114,-0.014275850537,-0.0337132221969,-0.0700292362015
1610117289714449351,72109,1610117289714284370,base_link,-0.468345942772,0.419495997345,2.30937589152,-0.014381837879,-0.0335463277858,-0.0704303396149
1610117289734140284,72110,1610117289734016566,base_link,-0.459470478157,0.431804805552,2.30517217718,-0.014383306498,-0.0335485740933,-0.0706303071101
1610117289754174446,72111,1610117289754061109,base_link,-0.451256534886,0.453077425135,2.30487007418,-0.01489632085,-0.0338574427699,-0.0706236354279
1610117289774174737,72112,1610117289774060415,base_link,-0.442293852083,0.465522265899,2.31266539872,-0.0152098930096,-0.0333499754156,-0.0712270916864
1610117289794208281,72113,1610117289794041760,base_link,-0.448073505038,0.483115084579,2.3225111029,-0.0155822829322,-0.0331069481243,-0.0710286198294
1610117289794272762,72114,1610117289794147658,base_link,-0.463113903557,0.504476733432,2.33238240327,-0.0160965116031,-0.0334161068082,-0.0710214059022
1610117289814692115,72115,1610117289814421300,base_link,-0.446324878221,0.507556348215,2.330225189,-0.0163055509775,-0.0330777959073,-0.071423723076
1610117289834181774,72116,1610117289834042562,base_link,-0.44699692719,0.504836989705,2.33227423873,-0.0165146510425,-0.0327363422731,-0.071625711742
1610117289854216870,72117,1610117289854067469,base_link,-0.462058516181,0.491127244993,2.33453813315,-0.016032617824,-0.0331452626006,-0.0714246605515
1610117289874291148,72118,1610117289874148384,base_link,-0.461791437507,0.474864689989,2.3227021934,-0.0155580344773,-0.0335642404018,-0.0718213062146
1610117289874410552,72119,1610117289874263414,base_link,-0.445776556603,0.463382318707,2.30671222057,-0.0152167395458,-0.033360416934,-0.0720261570077
1610117289894186099,72120,1610117289894075762,base_link,-0.478046213588,0.462623347046,2.30295758483,-0.0150106188315,-0.0337032064531,-0.0720238167358
1610117289914350043,72121,1610117289914211703,base_link,-0.494908597306,0.459431402789,2.29511665539,-0.0144631211081,-0.0338421228332,-0.0722262807307
1610117289934266725,72122,1610117289934112609,base_link,-0.505241473612,0.476516257786,2.28700849434,-0.0146355953477,-0.0339427914032,-0.0722247063347
1610117289954329948,72123,1610117289954176705,base_link,-0.522349629751,0.477941160678,2.29311877407,-0.0149070913949,-0.033869938218,-0.0718234761421
1610117289954389074,72124,1610117289954276162,base_link,-0.543143450386,0.481898430813,2.31122866488,-0.0152483999154,-0.0340737458963,-0.07161863228
1610117289974266362,72125,1610117289974127631,base_link,-0.535857723841,0.481715506218,2.32721477782,-0.0157948273704,-0.0339320563987,-0.0714169167203
1610117289994218732,72126,1610117289994028066,base_link,-0.525846167239,0.480799072617,2.33715580164,-0.0161717680285,-0.0336905884911,-0.0712162507695
1610117290014278856,72127,1610117290014126668,base_link,-0.519948635318,0.486746393764,2.34704668017,-0.0166845164155,-0.0339975154422,-0.0710089816857
1610117290034366125,72128,1610117290034134866,base_link,-0.509308824565,0.48845824147,2.34293481333,-0.0168591223509,-0.0341061488268,-0.0716079237564
1610117290034464193,72129,1610117290034301770,base_link,-0.489486194969,0.486304562705,2.33281244163,-0.0168967875981,-0.0336647693703,-0.0720126330525
1610117290054218392,72130,1610117290054089297,base_link,-0.472370212354,0.473218330181,2.32683233996,-0.0164841343315,-0.0331819907721,-0.071821004819
1610117290074253684,72131,1610117290074106640,base_link,-0.457640280695,0.45637755702,2.3268698002,-0.0159710224995,-0.0328792016455,-0.0716240904261
1610117290094300296,72132,1610117290094126597,base_link,-0.444312364751,0.445666533561,2.31889174904,-0.0156643970631,-0.0322295086614,-0.0718337360391
1610117290114380650,72133,1610117290114232499,base_link,-0.42677266186,0.43991975556,2.3228594765,-0.0153521673588,-0.0315676009597,-0.0714455859521
1610117290114546166,72134,1610117290114345926,base_link,-0.417482946727,0.424516969215,2.3249640387,-0.0150078460656,-0.0313592404965,-0.0712504550441
1610117290134529024,72135,1610117290134284263,base_link,-0.431654864652,0.432236814264,2.31098062587,-0.0149745736759,-0.0318073306043,-0.0714457257163
1610117290154279499,72136,1610117290154107672,base_link,-0.44099699762,0.447543911567,2.29886931566,-0.0149455595434,-0.0322552193263,-0.0714386426641
1610117290174479656,72137,1610117290174285039,base_link,-0.454988247035,0.455552334395,2.3109005896,-0.0150728759674,-0.0327971070424,-0.0712356026391
1610117290194411969,72138,1610117290194253390,base_link,-0.482462135339,0.462345604273,2.30702589361,-0.0152779370867,-0.0336204554807,-0.0712248984124
1610117290214282593,72139,1610117290214130710,base_link,-0.510338038859,0.47352160023,2.2990956617,-0.0152084549592,-0.0345130113805,-0.0710135512288
1610117290214355945,72140,1610117290214234142,base_link,-0.529462899013,0.478439864425,2.31118250266,-0.0157241522501,-0.0348244184977,-0.0712062644146
1610117290234332606,72141,1610117290234211591,base_link,-0.538668227166,0.482294319836,2.31920777431,-0.0161729977393,-0.0348636471466,-0.0716025737644
1610117290254411273,72142,1610117290254215089,base_link,-0.524971229828,0.46713997867,2.31125246691,-0.0160022017098,-0.0347625107228,-0.0716044741378
1610117290274294240,72143,1610117290274144420,base_link,-0.504774074419,0.460572206803,2.30517744156,-0.0159700767336,-0.0340444935664,-0.0718128355262
1610117290274369404,72144,1610117290274250947,base_link,-0.491080674423,0.457110341195,2.30111530995,-0.0162807211764,-0.0335325408416,-0.0720163613217
1610117290294270979,72145,1610117290294140600,base_link,-0.468504191921,0.454298663366,2.29497882543,-0.015661005947,-0.0333919142494,-0.0716214424126
1610117290314225277,72146,1610117290314103793,base_link,-0.462331741717,0.455675587642,2.29491785366,-0.0158309141569,-0.0334926998469,-0.0714190520292
1610117290334246321,72147,1610117290334082453,base_link,-0.468540760558,0.46592504677,2.28888096178,-0.0160377476497,-0.0331465334641,-0.0716237335038
1610117290354226306,72148,1610117290354066896,base_link,-0.463265697754,0.469203004955,2.3047896372,-0.0159362060386,-0.0333181958508,-0.0714209002857
1610117290354340792,72149,1610117290354207849,base_link,-0.442592637679,0.481725417111,2.31849792032,-0.0159694434864,-0.0328701200402,-0.0712256396949
1610117290374393846,72150,1610117290374240197,base_link,-0.440601200362,0.489868283094,2.31039101403,-0.0163470137329,-0.032630393245,-0.0712255508049
1610117290394259813,72151,1610117290394133482,base_link,-0.441353495175,0.487036559491,2.30442726661,-0.0161009416585,-0.0322502544485,-0.0710330965326
1610117290414248451,72152,1610117290414113046,base_link,-0.447785800527,0.490251461592,2.31643939365,-0.0159949401721,-0.0324171752524,-0.0706319484021
1610117290434253006,72153,1610117290434109858,base_link,-0.467297103109,0.476215748963,2.32074910488,-0.0158905684198,-0.0325872318715,-0.0706316119356
1610117290434372454,72154,1610117290434266007,base_link,-0.490931315775,0.457351633474,2.3231336436,-0.0155813751006,-0.0331014228637,-0.0706281261941
1610117290454313790,72155,1610117290454118373,base_link,-0.498400889938,0.438913929088,2.33139538658,-0.015203787546,-0.0333411223973,-0.0706282127648
1610117290474296219,72156,1610117290474172193,base_link,-0.500726301884,0.423561878066,2.33758475273,-0.0148274543012,-0.0335803837121,-0.0706283026017
1610117290495108740,72157,1610117290494856234,base_link,-0.496995662995,0.421095868858,2.33158450819,-0.0150017714015,-0.0336878909462,-0.0710258763671
1610117290514469768,72158,1610117290514278157,base_link,-0.49565394013,0.438223715681,2.32938301743,-0.015344540885,-0.0338939556755,-0.0710210580718
1610117290514693457,72159,1610117290514496014,base_link,-0.502531650462,0.4574259483,2.32921861148,-0.0156873103686,-0.0341000204049,-0.0710162397765
1610117290534261484,72160,1610117290534097833,base_link,-0.515528349319,0.475342122441,2.3391177557,-0.0160301650031,-0.034306972531,-0.0710108184479
1610117290554187502,72161,1610117290554054480,base_link,-0.517615875044,0.490408638183,2.33696418094,-0.016306071558,-0.0342408670001,-0.071209582911
1610117290574505565,72162,1610117290574236598,base_link,-0.514475493133,0.47363592858,2.33513018421,-0.0155175139091,-0.0339953120874,-0.0710190758541
1610117290594261992,72163,1610117290594106847,base_link,-0.505538333564,0.451005743839,2.33531759174,-0.0147302945467,-0.0337568030125,-0.0712275618022
1610117290594373448,72164,1610117290594225849,base_link,-0.493172374802,0.430436591154,2.33545683681,-0.0141144661051,-0.0336213160634,-0.0714336403158
1610117290614221509,72165,1610117290614074828,base_link,-0.492824190586,0.425986892546,2.33948912367,-0.0140177201304,-0.0338042053606,-0.0720297866657
1610117290634243064,72166,1610117290634071813,base_link,-0.493099114858,0.430557855038,2.34944070268,-0.0143620452874,-0.0340125627558,-0.0722249140317
1610117290654201698,72167,1610117290654069276,base_link,-0.494984063643,0.434256374838,2.37341514026,-0.0146364792644,-0.0339442046495,-0.0722236629032
1610117290674423254,72168,1610117290674120534,base_link,-0.494565739169,0.453260919143,2.38520272318,-0.0152539360151,-0.0340798430948,-0.0720169679356
1610117290674427945,72169,1610117290674220814,base_link,-0.496945425393,0.46119193699,2.38913130974,-0.0156300342487,-0.0338378706794,-0.0718168655108
1610117290694306666,72170,1610117290694178867,base_link,-0.484998300354,0.444970877494,2.37922475613,-0.0152159002786,-0.0333528281951,-0.0714253688343
1610117290714270714,72171,1610117290714140256,base_link,-0.491932199299,0.429049710215,2.36744692744,-0.0145581112941,-0.0336559781291,-0.0710278735683
1610117290734335048,72172,1610117290734166247,base_link,-0.504801206414,0.430484122278,2.34352319118,-0.0146948565063,-0.0342048846042,-0.0710207032358
1610117290754179805,72173,1610117290754069926,base_link,-0.505915443061,0.432085650546,2.33354178658,-0.0148003578843,-0.0340330293197,-0.0712222502451
1610117290754279177,72174,1610117290754171796,base_link,-0.502193924869,0.441282697069,2.32741084752,-0.0149732171836,-0.0341383019451,-0.0714198478541
1610117290774270627,72175,1610117290774123905,base_link,-0.494697932243,0.459764551062,2.32314811681,-0.0151446018734,-0.0342413341984,-0.0714174302574
1610117290794207390,72176,1610117290794085491,base_link,-0.491628520134,0.477944597443,2.32292185274,-0.0157618877393,-0.0343790929864,-0.0714113362878
1610117290814231098,72177,1610117290814100805,base_link,-0.495666121276,0.496591398553,2.33471255738,-0.0162063268242,-0.0344166332192,-0.0714073246967
1610117290834788094,72178,1610117290834389130,base_link,-0.511073349886,0.499024692787,2.33879882794,-0.0161686614872,-0.0348579667591,-0.0710025889002
1610117290834807538,72179,1610117290834500020,base_link,-0.531276337828,0.493906794377,2.34300495449,-0.0160294023425,-0.0354729540764,-0.0707966520076
1610117290854328911,72180,1610117290854182337,base_link,-0.540878882647,0.478804764694,2.34328564711,-0.0159259821673,-0.0356403453414,-0.0707967493752
1610117290874238769,72181,1610117290874102184,base_link,-0.535729239504,0.45855177223,2.34147387497,-0.0154132270841,-0.0353334227478,-0.0710040083459
1610117290894353408,72182,1610117290894198137,base_link,-0.511819083784,0.461164429154,2.32725217669,-0.015276919647,-0.034787545676,-0.0712114928325
1610117290914298569,72183,1610117290914126889,base_link,-0.495743476396,0.473123621463,2.32099570402,-0.0153841532772,-0.0346210262154,-0.0716122271495
1610117290934399893,72184,1610117290934235861,base_link,-0.488912112723,0.488885189838,2.3187690298,-0.0157616475787,-0.0343812593986,-0.0716121384142
1610117290934446671,72185,1610117290934310916,base_link,-0.484797015422,0.505373217235,2.32055443531,-0.0164136698842,-0.0340731632174,-0.0716107980057
1610117290954259187,72186,1610117290954114878,base_link,-0.479691574597,0.520100950313,2.31837191232,-0.0167235892979,-0.0335574584976,-0.071614316076
1610117290974285828,72187,1610117290974149400,base_link,-0.500918440622,0.481670657638,2.31895784503,-0.015797128643,-0.0339339018326,-0.0716169332618
1610117290995158961,72188,1610117290994718936,base_link,-0.522509925405,0.447661971,2.31746195191,-0.01507540739,-0.0339714044987,-0.0716210891282
1610117290995215546,72189,1610117290994969905,base_link,-0.532102484839,0.420878347401,2.31583270984,-0.0143580765926,-0.0340095821134,-0.0720259812715
1610117291014281112,72190,1610117291014130301,base_link,-0.531757270988,0.41641953404,2.31588021224,-0.0139791081871,-0.0342470952463,-0.0718260467381
1610117291034341786,72191,1610117291034149395,base_link,-0.527219986402,0.428560622356,2.32572260711,-0.0140490356368,-0.0345198970032,-0.0718227445625
1610117291054541286,72192,1610117291054338892,base_link,-0.514614604351,0.473432888539,2.31912639334,-0.0152166731529,-0.0345231391142,-0.0720141303619
1610117291074297477,72193,1610117291074088777,base_link,-0.515026867547,0.477804936967,2.31308759373,-0.0153877071881,-0.0346262751057,-0.0720115432494
1610117291074304098,72194,1610117291074172565,base_link,-0.515349134314,0.470624328714,2.31517064423,-0.0152831830941,-0.0347954204853,-0.071810414042
1610117291094291709,72195,1610117291094099174,base_link,-0.51013073053,0.450469088286,2.32333908625,-0.015214929603,-0.0345238911134,-0.0718128768046
1610117291114197851,72196,1610117291114046460,base_link,-0.521392647109,0.422724202884,2.32773431784,-0.0151118754014,-0.0346952756759,-0.0718117084076
1610117291134309495,72197,1610117291134142029,base_link,-0.528834456426,0.404341697521,2.34201693232,-0.0147681533598,-0.034484381643,-0.0714156645396
1610117291154201790,72198,1610117291154087820,base_link,-0.50514955194,0.399926227926,2.34389141896,-0.014458581866,-0.0338301778991,-0.071225258745
1610117291154402381,72199,1610117291154224484,base_link,-0.480836354744,0.409850658522,2.33959953552,-0.0144249278598,-0.0331098812557,-0.0712336064377
1610117291174302241,72200,1610117291174153975,base_link,-0.49806282871,0.434433168702,2.32943161241,-0.0145956636359,-0.0332167151048,-0.0716330303009
1610117291194346759,72201,1610117291194186143,base_link,-0.502984703211,0.450047893017,2.31529131636,-0.0146987178427,-0.0330453305344,-0.0716341970807
1610117291214329401,72202,1610117291214149213,base_link,-0.493387471116,0.453458142606,2.30917805177,-0.0148049783643,-0.0328735326894,-0.0716349496404
1610117291234271209,72203,1610117291234124635,base_link,-0.500611542173,0.477118044984,2.30896532023,-0.0156620145092,-0.0333886917479,-0.0716228679353
1610117291234382414,72204,1610117291234234975,base_link,-0.516405515416,0.495624852543,2.30887341927,-0.0165161129617,-0.0338993575069,-0.071210803563
1610117291255415154,72205,1610117291254923556,base_link,-0.50301123055,0.496720675812,2.31677539918,-0.0166824406588,-0.0339977966469,-0.0708086605326
1610117291274252386,72206,1610117291274098733,base_link,-0.492273594148,0.498607524913,2.33265998859,-0.0166817773456,-0.034000145453,-0.0708079854781
1610117291294238601,72207,1610117291294089281,base_link,-0.484968221313,0.498428854581,2.34660971748,-0.0165801783036,-0.0341737983824,-0.0710068304165
1610117291314212770,72208,1610117291314069359,base_link,-0.466339709518,0.491064682073,2.36059642002,-0.016340986745,-0.0337919618788,-0.0710139761926
1610117291334282574,72209,1610117291334150561,base_link,-0.449105225403,0.478158394392,2.37061477163,-0.0158297913443,-0.0334873224227,-0.0714212068825
1610117291334329324,72210,1610117291334224834,base_link,-0.446710312638,0.470250134318,2.36868558215,-0.0153853653789,-0.033454818031,-0.0716248968647
1610117291354245204,72211,1610117291354087474,base_link,-0.446734697429,0.48187117673,2.36451464634,-0.0155558078821,-0.0335615838255,-0.0716219232681
1610117291374444653,72212,1610117291374134198,base_link,-0.477712439674,0.486487350267,2.35068853099,-0.0156909916292,-0.0341081969203,-0.0714147387053
1610117291394257323,72213,1610117291394083630,base_link,-0.514812440508,0.478129038816,2.34108106944,-0.0154543136764,-0.0348965508294,-0.0716076012557
1610117291394310482,72214,1610117291394183221,base_link,-0.519968910138,0.47501560583,2.33915373723,-0.015282846013,-0.0347934715168,-0.071610020117
1610117291414411235,72215,1610117291414242427,base_link,-0.504807208291,0.47719775306,2.34901835167,-0.0155905416213,-0.0342770224597,-0.0714134950659
1610117291434484780,72216,1610117291434180426,base_link,-0.500322444376,0.465906746153,2.35111218235,-0.0154176826619,-0.0341717490277,-0.0712158975892
1610117291454255106,72217,1610117291454086618,base_link,-0.483850399905,0.473500824503,2.35689259041,-0.0155513162768,-0.0335577092643,-0.071423155855
1610117291474276457,72218,1610117291474158733,base_link,-0.459128975833,0.490737906868,2.36251894878,-0.0159621176752,-0.0328699042539,-0.0712278016242
1610117291494328153,72219,1610117291494174292,base_link,-0.468370949444,0.506211010714,2.36444245917,-0.0163081117797,-0.0330712189534,-0.0710222562195
1610117291494386333,72220,1610117291494262581,base_link,-0.479116899858,0.515990925116,2.35041102152,-0.0162079949769,-0.0332471008832,-0.0714210805731
1610117291514300130,72221,1610117291514144661,base_link,-0.475386461992,0.513524948222,2.34441063872,-0.0163125333563,-0.0330779326405,-0.0716222542484
1610117291534197488,72222,1610117291534074711,base_link,-0.447281229496,0.509371424563,2.33820513323,-0.0163451380036,-0.0326355550374,-0.0716270560625
1610117291554276025,72223,1610117291554113192,base_link,-0.423668081147,0.504845136582,2.3300824358,-0.0159339587132,-0.0321550064516,-0.0716354611119
1610117291554331999,72224,1610117291554223706,base_link,-0.423334208087,0.500364124272,2.32813008237,-0.0158309106306,-0.0323263946803,-0.0716342908121
1610117291574280787,72225,1610117291574109107,base_link,-0.433588421969,0.494227023206,2.33227448849,-0.0161723008713,-0.0325302589895,-0.0714294998116
1610117291594188311,72226,1610117291594070263,base_link,-0.444574990109,0.496975795291,2.33436040948,-0.0162433900053,-0.0328008267287,-0.0712244364118
1610117291614227534,72227,1610117291614086812,base_link,-0.463428638256,0.485641145297,2.33462692812,-0.0157597879315,-0.0332074536802,-0.0708233928965
1610117291634377247,72228,1610117291634126683,base_link,-0.486968173359,0.478577988965,2.34686520558,-0.0157222255576,-0.0336521599624,-0.0708205901055
1610117291654229478,72229,1610117291654116005,base_link,-0.488057579484,0.480202803339,2.33885429055,-0.0158950810362,-0.0337574261043,-0.0710181945108
1610117291654350834,72230,1610117291654256969,base_link,-0.483686104198,0.480415141888,2.32681869019,-0.0156191693297,-0.0338235711583,-0.0708194263578
1610117291674264727,72231,1610117291674124469,base_link,-0.481045667604,0.479581687238,2.31480775301,-0.0156263231081,-0.033830629505,-0.0712167797442
1610117291694413804,72232,1610117291694209754,base_link,-0.484151914423,0.484701045802,2.31277308125,-0.0159736102184,-0.0340434823961,-0.0718118792738
1610117291714269066,72233,1610117291714106766,base_link,-0.48567542642,0.490649333783,2.29271554601,-0.0165923888675,-0.0341834552649,-0.0720057860884
1610117291714307017,72234,1610117291714206641,base_link,-0.468192932792,0.484810635955,2.29065186487,-0.016009804606,-0.0335999044757,-0.0720166522045
1610117291734737328,72235,1610117291734270434,base_link,-0.46704803137,0.4832709804,2.30467654583,-0.0159382929646,-0.0333250985309,-0.0724241101672
1610117291754214295,72236,1610117291754078859,base_link,-0.465232432072,0.484457051554,2.31865119187,-0.0157654409196,-0.0332198378067,-0.0722265481409
1610117291774210505,72237,1610117291774058738,base_link,-0.464834017404,0.468415235796,2.32881608217,-0.0153222982321,-0.0331895296838,-0.0722273700983
1610117291794313787,72238,1610117291794144126,base_link,-0.460972961388,0.454478621148,2.33699593117,-0.01443563781,-0.0331163466171,-0.0724355479191
1610117291794320872,72239,1610117291794239524,base_link,-0.458210711879,0.465500251917,2.34085284864,-0.0148830342159,-0.0331532745672,-0.0726318227974
1610117291814330039,72240,1610117291814162364,base_link,-0.477742662742,0.46310468766,2.34302459938,-0.0149167279166,-0.0338735898554,-0.0726235306024
1610117291834299775,72241,1610117291834120180,base_link,-0.503517757954,0.447536635597,2.33533954495,-0.014709027158,-0.034222443924,-0.0726197221154
1610117291854474944,72242,1610117291854221311,base_link,-0.520737142121,0.460465551166,2.32732068347,-0.0151549282979,-0.0342571703298,-0.0726160401215
1610117291874336898,72243,1610117291874176842,base_link,-0.527583081097,0.468033379434,2.32928303781,-0.015599314485,-0.034292739498,-0.0728139575182
1610117291894285649,72244,1610117291894151724,base_link,-0.54026175538,0.458077222016,2.32948779809,-0.0155631171556,-0.034736325242,-0.0726092486397
1610117291894389418,72245,1610117291894296259,base_link,-0.54172929393,0.464115661457,2.31742993736,-0.0159376747856,-0.0344920801862,-0.0722091786826
1610117291914271646,72246,1610117291914105261,base_link,-0.535546128902,0.477188628638,2.32123126054,-0.0162406718637,-0.0339731430627,-0.0718138787111
1610117291934302458,72247,1610117291934122599,base_link,-0.536462727422,0.467398054899,2.3353489142,-0.0161376176451,-0.034144527648,-0.0718127151625
1610117291954362329,72248,1610117291954175235,base_link,-0.537132825761,0.464666691637,2.3373599283,-0.0163123841101,-0.0342508244527,-0.0716067137003
1610117291954494884,72249,1610117291954319072,base_link,-0.526123153567,0.473660813414,2.34317796309,-0.0165199719374,-0.0339102882609,-0.0718090314653
1610117291974265773,72250,1610117291974063550,base_link,-0.494511528489,0.448359062589,2.34526589599,-0.0156648781583,-0.0333919702208,-0.072022934436
1610117291994250192,72251,1610117291994092888,base_link,-0.466024160631,0.428148673552,2.34528276661,-0.0149474764008,-0.0334301222049,-0.0724278445953
1610117292014399083,72252,1610117292014143983,base_link,-0.450250491973,0.421274868197,2.34321558283,-0.0144318204399,-0.0331239451894,-0.0724347378888
1610117292034204447,72253,1610117292034082907,base_link,-0.464278486839,0.417535644015,2.34736081713,-0.0143273074095,-0.0332930853313,-0.0722335985277
1610117292055135118,72254,1610117292054628233,base_link,-0.48938152917,0.404735435357,2.34173425608,-0.0140787635526,-0.0340691620072,-0.0716290484104
1610117292055143812,72255,1610117292054839794,base_link,-0.503825363997,0.428708267343,2.33957288005,-0.0147643644791,-0.0344813734909,-0.0716194110783
1610117292074216212,72256,1610117292074056970,base_link,-0.514435683051,0.450371639976,2.3454096178,-0.0153816438744,-0.0346191621798,-0.0716133377094
1610117292094178949,72257,1610117292094039752,base_link,-0.508315352718,0.463327997288,2.33520388171,-0.0154807929113,-0.0344411681713,-0.0710148648843
1610117292114840156,72258,1610117292114456712,base_link,-0.489174912144,0.470114089811,2.3269872065,-0.0153411176309,-0.0338877955985,-0.0706220117937
1610117292114880030,72259,1610117292114618162,base_link,-0.467200145327,0.476351153903,2.33075686204,-0.0155136226977,-0.0328247318952,-0.0706326167316
1610117292134169745,72260,1610117292134034306,base_link,-0.469269131158,0.456409420046,2.32896534217,-0.0149001989969,-0.0326948093311,-0.0708358055424
1610117292154276537,72261,1610117292154132545,base_link,-0.465598117952,0.453854467173,2.31496589914,-0.0146242120843,-0.0327608625289,-0.0706370392666
1610117292174506355,72262,1610117292174161347,base_link,-0.447734265963,0.455286887003,2.31881899486,-0.0146256812829,-0.0327631111697,-0.0708370067313
1610117292194288239,72263,1610117292194100386,base_link,-0.443510825357,0.460275918287,2.33475773098,-0.014698862272,-0.0330399770748,-0.0712333263083
1610117292194355866,72264,1610117292194213571,base_link,-0.458858916044,0.462798781826,2.3468438294,-0.0147339237353,-0.0337624884224,-0.0714249616161
1610117292214619527,72265,1610117292214464055,base_link,-0.476311607692,0.480364132026,2.35477616646,-0.0152466803036,-0.0340693958268,-0.0712177298445
1610117292234257231,72266,1610117292234109293,base_link,-0.500885874515,0.486709000276,2.37287902872,-0.015829767032,-0.0346546881899,-0.0712060004565
1610117292254213825,72267,1610117292254094273,base_link,-0.516696949972,0.505193304832,2.37078767384,-0.0164485390072,-0.034794690657,-0.0713999072001
1610117292274486402,72268,1610117292274182902,base_link,-0.513385784921,0.518746700075,2.35461257489,-0.0167185220375,-0.0347217729519,-0.0712007512541
1610117292274607769,72269,1610117292274416799,base_link,-0.520260852262,0.502917755844,2.35084005171,-0.0163410219773,-0.0349615307024,-0.0712008384392
1610117292294824349,72270,1610117292294432531,base_link,-0.491387820505,0.501661319985,2.3586426549,-0.0165471385577,-0.0346187386078,-0.0712031655128
1610117292314274764,72271,1610117292314128834,base_link,-0.46567477778,0.482088752786,2.35467278767,-0.0162391046987,-0.0339668434807,-0.0712127353623
1610117292334220469,72272,1610117292334068313,base_link,-0.470716267878,0.467459486583,2.3628950965,-0.0162390624801,-0.0339608996742,-0.07101383461
1610117292354274504,72273,1610117292354111848,base_link,-0.473030676886,0.452135421147,2.37308419761,-0.0156901054348,-0.0340976068535,-0.0710163435337
1610117292354351435,72274,1610117292354213099,base_link,-0.454603135582,0.444449613487,2.35903337478,-0.0152120314708,-0.0333448905855,-0.0712283163554
1610117292374330874,72275,1610117292374166096,base_link,-0.45395905103,0.45881192752,2.3568427803,-0.0149345627402,-0.0334159593067,-0.0712296240201
1610117292394153896,72276,1610117292394017349,base_link,-0.456046588698,0.473879861056,2.35468921658,-0.0146600469643,-0.0334842681331,-0.0712308690515
1610117292414242208,72277,1610117292414082181,base_link,-0.468683849827,0.475666032926,2.36077808598,-0.0141801493398,-0.0338931521316,-0.071230470805
1610117292434251155,72278,1610117292434113495,base_link,-0.458753682938,0.474623568229,2.36069587226,-0.0143906327634,-0.03355580271,-0.0712291651628
1610117292454283526,72279,1610117292454141855,base_link,-0.440819366039,0.476167798772,2.37454746089,-0.0143876833708,-0.0335513028809,-0.070829182655
1610117292454392428,72280,1610117292454240196,base_link,-0.464537639813,0.468856921118,2.36680388655,-0.0148974171928,-0.0338536436964,-0.0702219641488
1610117292474297398,72281,1610117292474146440,base_link,-0.481051119129,0.484578727871,2.36475873943,-0.0157835049696,-0.0339189795658,-0.0700164985979
1610117292494312331,72282,1610117292494140141,base_link,-0.454014815921,0.470429542975,2.35471768404,-0.0157136411596,-0.0336422470756,-0.0698201100228
